[
  {
    "idendereco": 45,
    "idcidade": 16,
    "tipo_logr": "Rua",
    "logr_nome": "Antônio José Nogueira",
    "logr_compl": "Rua Antônio José Nogueira",
    "bairro": "João Eduardo I",
    "localidade": "Rio Branco",
    "uf": "AC",
    "cep": 69911434,
    "latitude": -9.981492,
    "longitude": -67.8350128
  },
  {
    "idendereco": 48,
    "idcidade": 16,
    "tipo_logr": "Rua",
    "logr_nome": "Antunes de Alencar",
    "logr_compl": "Rua Antunes de Alencar",
    "bairro": "Bosque",
    "localidade": "Rio Branco",
    "uf": "AC",
    "cep": 69900481,
    "latitude": -9.9656237,
    "longitude": -67.8174287
  },
  {
    "idendereco": 52,
    "idcidade": 16,
    "tipo_logr": "Alameda",
    "logr_nome": "Araras",
    "logr_compl": "Alameda Araras",
    "bairro": "Chácara Ipê",
    "localidade": "Rio Branco",
    "uf": "AC",
    "cep": 69917542,
    "latitude": -9.9671863,
    "longitude": -67.7889918
  },
  {
    "idendereco": 53,
    "idcidade": 16,
    "tipo_logr": "Rua",
    "logr_nome": "Ari Rodrigues",
    "logr_compl": "Rua Ari Rodrigues",
    "bairro": "Aeroporto Velho",
    "localidade": "Rio Branco",
    "uf": "AC",
    "cep": 69911096,
    "latitude": -9.9722117,
    "longitude": -67.8252676
  },
  {
    "idendereco": 54,
    "idcidade": 16,
    "tipo_logr": "Rua",
    "logr_nome": "Ari Rodrigues",
    "logr_compl": "Rua Ari Rodrigues",
    "bairro": "Abrahão Alab",
    "localidade": "Rio Branco",
    "uf": "AC",
    "cep": 69918046,
    "latitude": -9.972254,
    "longitude": -67.8246318
  },
  {
    "idendereco": 55,
    "idcidade": 16,
    "tipo_logr": "Rua",
    "logr_nome": "Arlindo Porto Leal",
    "logr_compl": "Rua Arlindo Porto Leal",
    "bairro": "Centro",
    "localidade": "Rio Branco",
    "uf": "AC",
    "cep": 69900058,
    "latitude": -14.235004,
    "longitude": -51.92528
  },
  {
    "idendereco": 56,
    "idcidade": 16,
    "tipo_logr": "Alameda",
    "logr_nome": "Atenas",
    "logr_compl": "Alameda Atenas",
    "bairro": "Jardim Europa",
    "localidade": "Rio Branco",
    "uf": "AC",
    "cep": 69915422,
    "latitude": -9.9705468,
    "longitude": -67.845084
  },
  {
    "idendereco": 58,
    "idcidade": 16,
    "tipo_logr": "Alameda",
    "logr_nome": "Austrália",
    "logr_compl": "Alameda Austrália",
    "bairro": "Jardim Europa",
    "localidade": "Rio Branco",
    "uf": "AC",
    "cep": 69915461,
    "latitude": -9.9711244,
    "longitude": -67.849802
  },
  {
    "idendereco": 60,
    "idcidade": 16,
    "tipo_logr": "Alameda",
    "logr_nome": "Azaléas",
    "logr_compl": "Alameda Azaléas",
    "bairro": "Chácara Ipê",
    "localidade": "Rio Branco",
    "uf": "AC",
    "cep": 69917536,
    "latitude": -9.975377,
    "longitude": -67.8248977
  },
  {
    "idendereco": 62,
    "idcidade": 16,
    "tipo_logr": "Rua",
    "logr_nome": "B",
    "logr_compl": "Rua B",
    "bairro": "Floresta Sul",
    "localidade": "Rio Branco",
    "uf": "AC",
    "cep": 69912470,
    "latitude": -9.975377,
    "longitude": -67.8248977
  },
  {
    "idendereco": 68,
    "idcidade": 16,
    "tipo_logr": "Travessa",
    "logr_nome": "Baguarí",
    "logr_compl": "Travessa Baguarí",
    "bairro": "Taquarí",
    "localidade": "Rio Branco",
    "uf": "AC",
    "cep": 69906422,
    "latitude": -14.235004,
    "longitude": -51.92528
  },
  {
    "idendereco": 72,
    "idcidade": 16,
    "tipo_logr": "Rua",
    "logr_nome": "Barão do Rio Branco",
    "logr_compl": "Rua Barão do Rio Branco",
    "bairro": "Bosque",
    "localidade": "Rio Branco",
    "uf": "AC",
    "cep": 69900547,
    "latitude": -9.9637849,
    "longitude": -67.816413
  },
  {
    "idendereco": 73,
    "idcidade": 16,
    "tipo_logr": "Rua",
    "logr_nome": "Barbosa Lima",
    "logr_compl": "Rua Barbosa Lima",
    "bairro": "Base",
    "localidade": "Rio Branco",
    "uf": "AC",
    "cep": 69900004,
    "latitude": -9.9784388,
    "longitude": -67.8091286
  },
  {
    "idendereco": 74,
    "idcidade": 16,
    "tipo_logr": "Alameda",
    "logr_nome": "Barcelona",
    "logr_compl": "Alameda Barcelona",
    "bairro": "Jardim Europa",
    "localidade": "Rio Branco",
    "uf": "AC",
    "cep": 69915449,
    "latitude": -9.9667225,
    "longitude": -67.8458118
  },
  {
    "idendereco": 75,
    "idcidade": 16,
    "tipo_logr": "Rua",
    "logr_nome": "Barra do Sol",
    "logr_compl": "Rua Barra do Sol",
    "bairro": "Cidade Nova",
    "localidade": "Rio Branco",
    "uf": "AC",
    "cep": 69905428,
    "latitude": -9.976628,
    "longitude": -67.8159415
  },
  {
    "idendereco": 76,
    "idcidade": 16,
    "tipo_logr": "Rua",
    "logr_nome": "Bartolomeu Bueno",
    "logr_compl": "Rua Bartolomeu Bueno",
    "bairro": "Bosque",
    "localidade": "Rio Branco",
    "uf": "AC",
    "cep": 69900541,
    "latitude": -9.9623711,
    "longitude": -67.8160876
  },
  {
    "idendereco": 77,
    "idcidade": 16,
    "tipo_logr": "Rua",
    "logr_nome": "Bartolomeu Dias",
    "logr_compl": "Rua Bartolomeu Dias",
    "bairro": "Bosque",
    "localidade": "Rio Branco",
    "uf": "AC",
    "cep": 69900673,
    "latitude": -21.4677131,
    "longitude": -47.0004111
  },
  {
    "idendereco": 81,
    "idcidade": 16,
    "tipo_logr": "Travessa",
    "logr_nome": "Beira Rio",
    "logr_compl": "Travessa Beira Rio",
    "bairro": "Conquista",
    "localidade": "Rio Branco",
    "uf": "AC",
    "cep": 69918816,
    "latitude": -9.9505722,
    "longitude": -67.8359665
  },
  {
    "idendereco": 87,
    "idcidade": 16,
    "tipo_logr": "Rua",
    "logr_nome": "Benjamim Constant",
    "logr_compl": "Rua Benjamim Constant - de 499 a 1239 - lado ímpar",
    "bairro": "Centro",
    "localidade": "Rio Branco",
    "uf": "AC",
    "cep": 69900064,
    "latitude": -9.9742718,
    "longitude": -67.8065948
  },
  {
    "idendereco": 88,
    "idcidade": 16,
    "tipo_logr": "Rua",
    "logr_nome": "Benjamim Constant",
    "logr_compl": "Rua Benjamim Constant - de 1241/1242 ao fim",
    "bairro": "Base",
    "localidade": "Rio Branco",
    "uf": "AC",
    "cep": 69900043,
    "latitude": -9.9742718,
    "longitude": -67.8065948
  }
]